[
    {
      "type": "Feature",
      "properties": {
        "@id": "node/26863952",
        "direction": "0-360",
        "ele": "2116",
        "name": "Roen",
        "name:de": "Roen",
        "name:it": "Monte Roen",
        "natural": "peak",
        "old_name:de": "Rhönberg",
        "summit:cross": "yes",
        "tourism": "viewpoint",
        "wikidata": "Q913922",
        "wikipedia": "de:Roen"
      },
      "geometry": {
        "type": "Point",
        "coordinates": [
          11.192267,
          46.3604269
        ]
      },
      "id": "node/26863952"
    },
    {
      "type": "Feature",
      "properties": {
        "@id": "node/61100874",
        "name": "Völseggspitze",
        "tourism": "viewpoint"
      },
      "geometry": {
        "type": "Point",
        "coordinates": [
          11.5245085,
          46.4844223
        ]
      },
      "id": "node/61100874"
    },
    {
      "type": "Feature",
      "properties": {
        "@id": "node/253773423",
        "name": "Belvedere",
        "tourism": "viewpoint"
      },
      "geometry": {
        "type": "Point",
        "coordinates": [
          11.7990137,
          46.2887716
        ]
      },
      "id": "node/253773423"
    },
    {
      "type": "Feature",
      "properties": {
        "@id": "node/269039579",
        "tourism": "viewpoint"
      },
      "geometry": {
        "type": "Point",
        "coordinates": [
          11.8181041,
          46.4758292
        ]
      },
      "id": "node/269039579"
    },
    {
      "type": "Feature",
      "properties": {
        "@id": "node/270514301",
        "tourism": "viewpoint"
      },
      "geometry": {
        "type": "Point",
        "coordinates": [
          11.6093982,
          46.5628136
        ]
      },
      "id": "node/270514301"
    },
    {
      "type": "Feature",
      "properties": {
        "@id": "node/270514428",
        "check_date": "2023-08-11",
        "direction": "310",
        "image": "https://photos.komoot.de/www/rs/rsdvqqbdsgi7ijpcf39wsy4x4o9q642g-p378791531-full/189df01c910?width=3072&height=2304&crop=false&q=70",
        "source": "mt",
        "tourism": "viewpoint"
      },
      "geometry": {
        "type": "Point",
        "coordinates": [
          11.6077552,
          46.5629564
        ]
      },
      "id": "node/270514428"
    },
    {
      "type": "Feature",
      "properties": {
        "@id": "node/277934516",
        "tourism": "viewpoint"
      },
      "geometry": {
        "type": "Point",
        "coordinates": [
          11.1899051,
          46.0709107
        ]
      },
      "id": "node/277934516"
    },
    {
      "type": "Feature",
      "properties": {
        "@id": "node/279714434",
        "name": "Drei Zinnen Blick",
        "tourism": "viewpoint",
        "wheelchair": "yes"
      },
      "geometry": {
        "type": "Point",
        "coordinates": [
          12.2329199,
          46.639826
        ]
      },
      "id": "node/279714434"
    },
    {
      "type": "Feature",
      "properties": {
        "@id": "node/279836254",
        "ele": "2673",
        "name": "Piza de Gherdenacia",
        "natural": "peak",
        "tourism": "viewpoint"
      },
      "geometry": {
        "type": "Point",
        "coordinates": [
          11.8482211,
          46.5945886
        ]
      },
      "id": "node/279836254"
    },
    {
      "type": "Feature",
      "properties": {
        "@id": "node/283551264",
        "tourism": "viewpoint"
      },
      "geometry": {
        "type": "Point",
        "coordinates": [
          11.9539781,
          46.7369669
        ]
      },
      "id": "node/283551264"
    },
    {
      "type": "Feature",
      "properties": {
        "@id": "node/283551288",
        "tourism": "viewpoint"
      },
      "geometry": {
        "type": "Point",
        "coordinates": [
          11.9534897,
          46.7365071
        ]
      },
      "id": "node/283551288"
    },
    {
      "type": "Feature",
      "properties": {
        "@id": "node/287973902",
        "name": "Croce",
        "tourism": "viewpoint"
      },
      "geometry": {
        "type": "Point",
        "coordinates": [
          10.960103,
          46.380859
        ]
      },
      "id": "node/287973902"
    },
    {
      "type": "Feature",
      "properties": {
        "@id": "node/289247845",
        "alt_name": "Dòs Pìciol",
        "ele": "1075",
        "loc_name": "Dòs de Miöla",
        "name": "Dosso di Miola",
        "natural": "peak",
        "tourism": "viewpoint",
        "wikidata": "Q31675299"
      },
      "geometry": {
        "type": "Point",
        "coordinates": [
          11.2507084,
          46.1304976
        ]
      },
      "id": "node/289247845"
    },
    {
      "type": "Feature",
      "properties": {
        "@id": "node/289257042",
        "name": "Partschinser Wasserfall - Cascata di Parcines",
        "name:de": "Partschinser Wasserfall",
        "name:it": "Cascata di Parcines",
        "tourism": "viewpoint",
        "wheelchair": "no"
      },
      "geometry": {
        "type": "Point",
        "coordinates": [
          11.0494507,
          46.6936174
        ]
      },
      "id": "node/289257042"
    },
    {
      "type": "Feature",
      "properties": {
        "@id": "node/289827472",
        "ele": "895",
        "name": "Doss del Stock",
        "tourism": "viewpoint",
        "tourism_1": "attraction"
      },
      "geometry": {
        "type": "Point",
        "coordinates": [
          11.138012,
          45.9045876
        ]
      },
      "id": "node/289827472"
    },
    {
      "type": "Feature",
      "properties": {
        "@id": "node/289877809",
        "name": "Rotwand - Rocce Rosse",
        "name:de": "Rotwand",
        "name:it": "Rocce Rosse",
        "source": "https://www.bolzanodintorni.info/it/l-alto-sud-dell-alto-adige/vacanza/da-vedere-assolutamente/lago-goeller-e-punti-panoramici.html",
        "tourism": "viewpoint"
      },
      "geometry": {
        "type": "Point",
        "coordinates": [
          11.3308574,
          46.3757799
        ]
      },
      "id": "node/289877809"
    },
    {
      "type": "Feature",
      "properties": {
        "@id": "node/290479625",
        "tourism": "viewpoint"
      },
      "geometry": {
        "type": "Point",
        "coordinates": [
          12.36651,
          46.7400527
        ]
      },
      "id": "node/290479625"
    },
    {
      "type": "Feature",
      "properties": {
        "@id": "node/290780687",
        "ele": "2258",
        "name": "Orenknott",
        "natural": "peak",
        "tourism": "viewpoint"
      },
      "geometry": {
        "type": "Point",
        "coordinates": [
          11.0242082,
          46.6819857
        ]
      },
      "id": "node/290780687"
    },
    {
      "type": "Feature",
      "properties": {
        "@id": "node/292512762",
        "ele": "2190",
        "name": "Campill - Campiglio",
        "name:de": "Campill",
        "name:it": "Campiglio",
        "natural": "peak",
        "tourism": "viewpoint",
        "wikidata": "Q31668906"
      },
      "geometry": {
        "type": "Point",
        "coordinates": [
          11.8252006,
          46.752977
        ]
      },
      "id": "node/292512762"
    },
    {
      "type": "Feature",
      "properties": {
        "@id": "node/293111567",
        "created_by": "JOSM",
        "tourism": "viewpoint"
      },
      "geometry": {
        "type": "Point",
        "coordinates": [
          11.4118522,
          46.2725073
        ]
      },
      "id": "node/293111567"
    },
    {
      "type": "Feature",
      "properties": {
        "@id": "node/297048039",
        "tourism": "viewpoint"
      },
      "geometry": {
        "type": "Point",
        "coordinates": [
          10.8594072,
          45.8766865
        ]
      },
      "id": "node/297048039"
    },
    {
      "type": "Feature",
      "properties": {
        "@id": "node/299499400",
        "created_by": "JOSM",
        "tourism": "viewpoint"
      },
      "geometry": {
        "type": "Point",
        "coordinates": [
          11.7847577,
          46.948185
        ]
      },
      "id": "node/299499400"
    },
    {
      "type": "Feature",
      "properties": {
        "@id": "node/300401254",
        "tourism": "viewpoint"
      },
      "geometry": {
        "type": "Point",
        "coordinates": [
          10.8875315,
          45.9209649
        ]
      },
      "id": "node/300401254"
    },
    {
      "type": "Feature",
      "properties": {
        "@id": "node/301339487",
        "name": "Regina Mundi",
        "tourism": "viewpoint"
      },
      "geometry": {
        "type": "Point",
        "coordinates": [
          10.8305227,
          45.8566196
        ]
      },
      "id": "node/301339487"
    },
    {
      "type": "Feature",
      "properties": {
        "@id": "node/301549920",
        "tourism": "viewpoint"
      },
      "geometry": {
        "type": "Point",
        "coordinates": [
          11.6867284,
          46.8594191
        ]
      },
      "id": "node/301549920"
    },
    {
      "type": "Feature",
      "properties": {
        "@id": "node/307253108",
        "direction": "0-360",
        "ele": "2442",
        "name": "Pizzo Gallino",
        "natural": "peak",
        "reg_name": "Piz Galin",
        "summit:cross": "yes",
        "summit:register": "yes",
        "tourism": "viewpoint",
        "wikidata": "Q3905936",
        "wikipedia": "it:Piz Galin"
      },
      "geometry": {
        "type": "Point",
        "coordinates": [
          10.9624745,
          46.1776827
        ]
      },
      "id": "node/307253108"
    },
    {
      "type": "Feature",
      "properties": {
        "@id": "node/307297671",
        "ele": "2907",
        "man_made": "cross",
        "name": "Le Ciaval",
        "name:de": "Heiligkreuzkofel",
        "name:it": "Monte Cavallo",
        "name:lld": "L'Ciaval",
        "natural": "peak",
        "tourism": "viewpoint",
        "wikidata": "Q8545671",
        "wikimedia_commons": "Category:Heiligkreuzkofel",
        "wikipedia": "de:Heiligkreuzkofel"
      },
      "geometry": {
        "type": "Point",
        "coordinates": [
          11.951485,
          46.6144819
        ]
      },
      "id": "node/307297671"
    },
    {
      "type": "Feature",
      "properties": {
        "@id": "node/307302677",
        "ele": "2968",
        "man_made": "cross",
        "name": "Piza dales Nü",
        "name:de": "Neuner (Spitze)",
        "name:it": "Cima Nove (Sasso delle Nove)",
        "name:lld": "Sas dales Nü",
        "natural": "peak",
        "tourism": "viewpoint",
        "wikidata": "Q739724",
        "wikimedia_commons": "Category:Neuner (Wengen)",
        "wikipedia": "de:Neuner (Fanesgruppe)"
      },
      "geometry": {
        "type": "Point",
        "coordinates": [
          11.9810725,
          46.6303454
        ]
      },
      "id": "node/307302677"
    },
    {
      "type": "Feature",
      "properties": {
        "@id": "node/311849671",
        "description:de": "Blick ins Vallsugana und den See",
        "tourism": "viewpoint"
      },
      "geometry": {
        "type": "Point",
        "coordinates": [
          11.2803055,
          46.0195988
        ]
      },
      "id": "node/311849671"
    },
    {
      "type": "Feature",
      "properties": {
        "@id": "node/313211043",
        "name": "Alpreider Bichl",
        "tourism": "viewpoint"
      },
      "geometry": {
        "type": "Point",
        "coordinates": [
          11.1027333,
          46.600452
        ]
      },
      "id": "node/313211043"
    },
    {
      "type": "Feature",
      "properties": {
        "@id": "node/313719257",
        "ele": "2568",
        "name": "Petz - Monte Pez",
        "name:de": "Petz",
        "name:it": "Monte Pez",
        "natural": "peak",
        "summit:cross": "yes",
        "summit:register": "no",
        "tourism": "viewpoint",
        "wheelchair": "no",
        "wikidata": "Q264772",
        "wikipedia": "de:Schlern"
      },
      "geometry": {
        "type": "Point",
        "coordinates": [
          11.5748922,
          46.5118256
        ]
      },
      "id": "node/313719257"
    },
    {
      "type": "Feature",
      "properties": {
        "@id": "node/315732326",
        "tourism": "viewpoint"
      },
      "geometry": {
        "type": "Point",
        "coordinates": [
          10.8744249,
          45.891246
        ]
      },
      "id": "node/315732326"
    },
    {
      "type": "Feature",
      "properties": {
        "@id": "node/317177386",
        "tourism": "viewpoint",
        "wikimedia_commons": "File:Castel_Penede_006.jpg"
      },
      "geometry": {
        "type": "Point",
        "coordinates": [
          10.8834476,
          45.8734358
        ]
      },
      "id": "node/317177386"
    },
    {
      "type": "Feature",
      "properties": {
        "@id": "node/319273987",
        "bench": "yes",
        "name": "Erdpyramiden im Finsterbachgraben - Piramidi di terra nella gola del rio Fosco",
        "name:de": "Erdpyramiden im Finsterbachgraben",
        "name:it": "Piramidi di terra nella gola del rio Fosco",
        "source": "survey",
        "tourism": "viewpoint"
      },
      "geometry": {
        "type": "Point",
        "coordinates": [
          11.469319,
          46.5522246
        ]
      },
      "id": "node/319273987"
    },
    {
      "type": "Feature",
      "properties": {
        "@id": "node/321205235",
        "tourism": "viewpoint"
      },
      "geometry": {
        "type": "Point",
        "coordinates": [
          11.2398295,
          46.3815237
        ]
      },
      "id": "node/321205235"
    },
    {
      "type": "Feature",
      "properties": {
        "@id": "node/322717853",
        "name": "Belvedere Campo Carlo Magno",
        "tourism": "viewpoint"
      },
      "geometry": {
        "type": "Point",
        "coordinates": [
          10.8404578,
          46.2432086
        ]
      },
      "id": "node/322717853"
    },
    {
      "type": "Feature",
      "properties": {
        "@id": "node/323254049",
        "name": "Panorama di Piuccilla",
        "tourism": "viewpoint"
      },
      "geometry": {
        "type": "Point",
        "coordinates": [
          10.7362497,
          46.2186721
        ]
      },
      "id": "node/323254049"
    },
    {
      "type": "Feature",
      "properties": {
        "@id": "node/323274613",
        "name": "Piazzale Panoramico",
        "tourism": "viewpoint"
      },
      "geometry": {
        "type": "Point",
        "coordinates": [
          10.8222138,
          46.2107785
        ]
      },
      "id": "node/323274613"
    },
    {
      "type": "Feature",
      "properties": {
        "@id": "node/324599686",
        "alt_name": "Cornocio",
        "name": "Guardadocio",
        "tourism": "viewpoint"
      },
      "geometry": {
        "type": "Point",
        "coordinates": [
          10.9724825,
          45.856985
        ]
      },
      "id": "node/324599686"
    },
    {
      "type": "Feature",
      "properties": {
        "@id": "node/329386168",
        "tourism": "viewpoint"
      },
      "geometry": {
        "type": "Point",
        "coordinates": [
          10.8348684,
          45.9141665
        ]
      },
      "id": "node/329386168"
    },
    {
      "type": "Feature",
      "properties": {
        "@id": "node/330318377",
        "tourism": "viewpoint"
      },
      "geometry": {
        "type": "Point",
        "coordinates": [
          10.9787915,
          45.8583294
        ]
      },
      "id": "node/330318377"
    },
    {
      "type": "Feature",
      "properties": {
        "@id": "node/338813417",
        "tourism": "viewpoint"
      },
      "geometry": {
        "type": "Point",
        "coordinates": [
          11.7254562,
          46.6012554
        ]
      },
      "id": "node/338813417"
    },
    {
      "type": "Feature",
      "properties": {
        "@id": "node/349057594",
        "tourism": "viewpoint"
      },
      "geometry": {
        "type": "Point",
        "coordinates": [
          10.8013669,
          46.2258906
        ]
      },
      "id": "node/349057594"
    },
    {
      "type": "Feature",
      "properties": {
        "@id": "node/354957372",
        "tourism": "viewpoint"
      },
      "geometry": {
        "type": "Point",
        "coordinates": [
          10.8455452,
          45.9139878
        ]
      },
      "id": "node/354957372"
    },
    {
      "type": "Feature",
      "properties": {
        "@id": "node/355691057",
        "name": "Gamperknot",
        "name:de": "Gamperknot",
        "tourism": "viewpoint"
      },
      "geometry": {
        "type": "Point",
        "coordinates": [
          11.3441576,
          46.4242427
        ]
      },
      "id": "node/355691057"
    },
    {
      "type": "Feature",
      "properties": {
        "@id": "node/365500517",
        "tourism": "viewpoint"
      },
      "geometry": {
        "type": "Point",
        "coordinates": [
          11.1690902,
          46.0542134
        ]
      },
      "id": "node/365500517"
    },
    {
      "type": "Feature",
      "properties": {
        "@id": "node/378233197",
        "created_by": "Potlatch 0.10f",
        "tourism": "viewpoint"
      },
      "geometry": {
        "type": "Point",
        "coordinates": [
          11.329987,
          46.3660118
        ]
      },
      "id": "node/378233197"
    },
    {
      "type": "Feature",
      "properties": {
        "@id": "node/379532406",
        "tourism": "viewpoint"
      },
      "geometry": {
        "type": "Point",
        "coordinates": [
          10.8823722,
          45.867629
        ]
      },
      "id": "node/379532406"
    },
    {
      "type": "Feature",
      "properties": {
        "@id": "node/380875070",
        "tourism": "viewpoint"
      },
      "geometry": {
        "type": "Point",
        "coordinates": [
          11.1610018,
          46.0914661
        ]
      },
      "id": "node/380875070"
    },
    {
      "type": "Feature",
      "properties": {
        "@id": "node/381128598",
        "alt_name": "Klotzbank",
        "name": "Aussichtspunkt Altenburg - Belvedere di Castelvecchio",
        "name:de": "Aussichtspunkt Altenburg",
        "name:it": "Belvedere di Castelvecchio",
        "source": "https://www.kalterersee.com/it/cultura-e-territorio/natura-e-paesaggio/punti-panoramici/belvedere-di-castelvecchio/",
        "tourism": "viewpoint",
        "wheelchair": "yes"
      },
      "geometry": {
        "type": "Point",
        "coordinates": [
          11.2401955,
          46.3779118
        ]
      },
      "id": "node/381128598"
    },
    {
      "type": "Feature",
      "properties": {
        "@id": "node/385492842",
        "tourism": "viewpoint"
      },
      "geometry": {
        "type": "Point",
        "coordinates": [
          11.1107202,
          45.9144616
        ]
      },
      "id": "node/385492842"
    },
    {
      "type": "Feature",
      "properties": {
        "@id": "node/386586303",
        "direction": "90",
        "tourism": "viewpoint"
      },
      "geometry": {
        "type": "Point",
        "coordinates": [
          11.2520479,
          46.4551526
        ]
      },
      "id": "node/386586303"
    },
    {
      "type": "Feature",
      "properties": {
        "@id": "node/386589153",
        "tourism": "viewpoint"
      },
      "geometry": {
        "type": "Point",
        "coordinates": [
          11.2393755,
          46.4464284
        ]
      },
      "id": "node/386589153"
    },
    {
      "type": "Feature",
      "properties": {
        "@id": "node/388291939",
        "tourism": "viewpoint"
      },
      "geometry": {
        "type": "Point",
        "coordinates": [
          11.4640633,
          46.2851033
        ]
      },
      "id": "node/388291939"
    },
    {
      "type": "Feature",
      "properties": {
        "@id": "node/391038683",
        "ele": "998",
        "importance": "urban",
        "name": "Cima Celva",
        "natural": "peak",
        "tourism": "viewpoint"
      },
      "geometry": {
        "type": "Point",
        "coordinates": [
          11.1840592,
          46.073892
        ]
      },
      "id": "node/391038683"
    },
    {
      "type": "Feature",
      "properties": {
        "@id": "node/391953759",
        "tourism": "viewpoint"
      },
      "geometry": {
        "type": "Point",
        "coordinates": [
          11.2294568,
          46.4775919
        ]
      },
      "id": "node/391953759"
    },
    {
      "type": "Feature",
      "properties": {
        "@id": "node/392394120",
        "name": "Knottnkino",
        "tourism": "viewpoint",
        "website": "http://www.meranerland.com/de/kultur/kulturtipps/knottnkino/"
      },
      "geometry": {
        "type": "Point",
        "coordinates": [
          11.2143559,
          46.6200792
        ]
      },
      "id": "node/392394120"
    },
    {
      "type": "Feature",
      "properties": {
        "@id": "node/395225066",
        "name": "Vista Val Concei",
        "tourism": "viewpoint"
      },
      "geometry": {
        "type": "Point",
        "coordinates": [
          10.7320231,
          45.9038934
        ]
      },
      "id": "node/395225066"
    },
    {
      "type": "Feature",
      "properties": {
        "@id": "node/401889203",
        "name": "Wallburg",
        "tourism": "viewpoint"
      },
      "geometry": {
        "type": "Point",
        "coordinates": [
          10.9796453,
          46.6504385
        ]
      },
      "id": "node/401889203"
    },
    {
      "type": "Feature",
      "properties": {
        "@id": "node/410692180",
        "name": "Osservatorio",
        "tourism": "viewpoint"
      },
      "geometry": {
        "type": "Point",
        "coordinates": [
          10.8918392,
          45.8121369
        ]
      },
      "id": "node/410692180"
    },
    {
      "type": "Feature",
      "properties": {
        "@id": "node/412784151",
        "ele": "953",
        "tourism": "viewpoint"
      },
      "geometry": {
        "type": "Point",
        "coordinates": [
          11.1521964,
          46.1786584
        ]
      },
      "id": "node/412784151"
    },
    {
      "type": "Feature",
      "properties": {
        "@id": "node/412784152",
        "tourism": "viewpoint"
      },
      "geometry": {
        "type": "Point",
        "coordinates": [
          11.150468,
          46.1759149
        ]
      },
      "id": "node/412784152"
    },
    {
      "type": "Feature",
      "properties": {
        "@id": "node/414736896",
        "name": "Engelrast",
        "name:de": "Aussichtsplattform Engelrast",
        "name:it": "Piattaforma panoramica Engelrast",
        "note": "There exists no equivalent to Engelrast in Ladin or Italian",
        "source:name": "survey;signposts",
        "tourism": "viewpoint",
        "url": "https://www.mapillary.com/app/?lat=46.551648805556&lng=11.616830805556&z=18.68870249545479&focus=photo&pKey=222262339345360&menu=false&x=0.48852842769959626&y=0.4150369073753623&zoom=0"
      },
      "geometry": {
        "type": "Point",
        "coordinates": [
          11.6189868,
          46.5520049
        ]
      },
      "id": "node/414736896"
    },
    {
      "type": "Feature",
      "properties": {
        "@id": "node/416944419",
        "name": "Belvedere degli innamorati",
        "tourism": "viewpoint"
      },
      "geometry": {
        "type": "Point",
        "coordinates": [
          10.8391458,
          45.8775955
        ]
      },
      "id": "node/416944419"
    },
    {
      "type": "Feature",
      "properties": {
        "@id": "node/417264188",
        "name": "Merltennen",
        "tourism": "viewpoint"
      },
      "geometry": {
        "type": "Point",
        "coordinates": [
          11.3841869,
          46.5253358
        ]
      },
      "id": "node/417264188"
    },
    {
      "type": "Feature",
      "properties": {
        "@id": "node/417303635",
        "tourism": "viewpoint"
      },
      "geometry": {
        "type": "Point",
        "coordinates": [
          10.8847737,
          45.8799369
        ]
      },
      "id": "node/417303635"
    },
    {
      "type": "Feature",
      "properties": {
        "@id": "node/419010041",
        "tourism": "viewpoint",
        "wheelchair": "no"
      },
      "geometry": {
        "type": "Point",
        "coordinates": [
          10.8783289,
          45.8667888
        ]
      },
      "id": "node/419010041"
    },
    {
      "type": "Feature",
      "properties": {
        "@id": "node/419251171",
        "tourism": "viewpoint"
      },
      "geometry": {
        "type": "Point",
        "coordinates": [
          11.0783513,
          45.9039778
        ]
      },
      "id": "node/419251171"
    },
    {
      "type": "Feature",
      "properties": {
        "@id": "node/419846011",
        "description": "Der Name resultiert aus einer Werbeaussage des früher hier liegenden Gasthofes. Der Blick geht Richtung Dolomiten ins Tal, jedoch gibt es hier nicht den zu erwartenden Panoramablick auf die bekannten Dolomitengipfel.",
        "direction": "0-180",
        "name": "Dolomitenblick",
        "tourism": "viewpoint"
      },
      "geometry": {
        "type": "Point",
        "coordinates": [
          10.8765898,
          46.6436817
        ]
      },
      "id": "node/419846011"
    },
    {
      "type": "Feature",
      "properties": {
        "@id": "node/420205204",
        "tourism": "viewpoint"
      },
      "geometry": {
        "type": "Point",
        "coordinates": [
          11.5730294,
          46.651689
        ]
      },
      "id": "node/420205204"
    },
    {
      "type": "Feature",
      "properties": {
        "@id": "node/424403361",
        "name": "Runder Tisch - Tavola Rotonda",
        "name:de": "Runder Tisch",
        "name:it": "Tavola Rotonda",
        "source": "https://www.sentres.com/it/escursioni/cieloronda",
        "tourism": "viewpoint"
      },
      "geometry": {
        "type": "Point",
        "coordinates": [
          11.4552299,
          46.5935446
        ]
      },
      "id": "node/424403361"
    },
    {
      "type": "Feature",
      "properties": {
        "@id": "node/427631938",
        "tourism": "viewpoint"
      },
      "geometry": {
        "type": "Point",
        "coordinates": [
          11.6190387,
          46.498019
        ]
      },
      "id": "node/427631938"
    },
    {
      "type": "Feature",
      "properties": {
        "@id": "node/427707987",
        "tourism": "viewpoint"
      },
      "geometry": {
        "type": "Point",
        "coordinates": [
          11.3090524,
          46.2272503
        ]
      },
      "id": "node/427707987"
    },
    {
      "type": "Feature",
      "properties": {
        "@id": "node/430806109",
        "tourism": "viewpoint"
      },
      "geometry": {
        "type": "Point",
        "coordinates": [
          10.8286733,
          45.851149
        ]
      },
      "id": "node/430806109"
    },
    {
      "type": "Feature",
      "properties": {
        "@id": "node/434148159",
        "tourism": "viewpoint"
      },
      "geometry": {
        "type": "Point",
        "coordinates": [
          11.184569,
          45.8389568
        ]
      },
      "id": "node/434148159"
    },
    {
      "type": "Feature",
      "properties": {
        "@id": "node/439548700",
        "ele": "2220",
        "name": "Plosescharte - Forcella Plose",
        "name:de": "Plosescharte",
        "name:it": "Forcella Plose",
        "natural": "saddle",
        "tourism": "viewpoint"
      },
      "geometry": {
        "type": "Point",
        "coordinates": [
          11.7328195,
          46.7118905
        ]
      },
      "id": "node/439548700"
    },
    {
      "type": "Feature",
      "properties": {
        "@id": "node/439646569",
        "name": "Belvedere - \"Croz de l'Anza Rossa\"",
        "tourism": "viewpoint"
      },
      "geometry": {
        "type": "Point",
        "coordinates": [
          11.244456,
          45.9926226
        ]
      },
      "id": "node/439646569"
    },
    {
      "type": "Feature",
      "properties": {
        "@id": "node/440150211",
        "alt_name": "Hexensessel",
        "direction": "335",
        "name": "Hexenbänke",
        "name:it": "Panche delle Streghe",
        "source:name": "local information board",
        "tourism": "viewpoint",
        "wheelchair": "no"
      },
      "geometry": {
        "type": "Point",
        "coordinates": [
          11.6140103,
          46.5640738
        ]
      },
      "id": "node/440150211"
    },
    {
      "type": "Feature",
      "properties": {
        "@id": "node/440776489",
        "name": "Zumis",
        "tourism": "viewpoint"
      },
      "geometry": {
        "type": "Point",
        "coordinates": [
          11.7271699,
          46.7752661
        ]
      },
      "id": "node/440776489"
    },
    {
      "type": "Feature",
      "properties": {
        "@id": "node/443332222",
        "tourism": "viewpoint"
      },
      "geometry": {
        "type": "Point",
        "coordinates": [
          11.2362207,
          46.036413
        ]
      },
      "id": "node/443332222"
    },
    {
      "type": "Feature",
      "properties": {
        "@id": "node/443448100",
        "tourism": "viewpoint"
      },
      "geometry": {
        "type": "Point",
        "coordinates": [
          11.1366298,
          46.6535486
        ]
      },
      "id": "node/443448100"
    },
    {
      "type": "Feature",
      "properties": {
        "@id": "node/444485435",
        "tourism": "viewpoint"
      },
      "geometry": {
        "type": "Point",
        "coordinates": [
          11.1793238,
          45.9345947
        ]
      },
      "id": "node/444485435"
    },
    {
      "type": "Feature",
      "properties": {
        "@id": "node/447888706",
        "name": "Kreuzstein - Sasso della Croce",
        "name:de": "Kreuzstein",
        "name:it": "Sasso della Croce",
        "place": "locality",
        "tourism": "viewpoint"
      },
      "geometry": {
        "type": "Point",
        "coordinates": [
          11.2445687,
          46.4704072
        ]
      },
      "id": "node/447888706"
    },
    {
      "type": "Feature",
      "properties": {
        "@id": "node/449551406",
        "tourism": "viewpoint"
      },
      "geometry": {
        "type": "Point",
        "coordinates": [
          11.1587079,
          45.9258865
        ]
      },
      "id": "node/449551406"
    },
    {
      "type": "Feature",
      "properties": {
        "@id": "node/453380409",
        "tourism": "viewpoint"
      },
      "geometry": {
        "type": "Point",
        "coordinates": [
          10.9640958,
          46.2815637
        ]
      },
      "id": "node/453380409"
    },
    {
      "type": "Feature",
      "properties": {
        "@id": "node/454228716",
        "direction": "150-280",
        "source": "local_knowledge",
        "tourism": "viewpoint",
        "wheelchair": "yes"
      },
      "geometry": {
        "type": "Point",
        "coordinates": [
          11.2931092,
          46.4256907
        ]
      },
      "id": "node/454228716"
    },
    {
      "type": "Feature",
      "properties": {
        "@id": "node/454239257",
        "ele": "2031",
        "name": "Schwarzer Kopf - Testa Nera",
        "name:de": "Schwarzer Kopf",
        "name:it": "Testa Nera",
        "natural": "peak",
        "tourism": "viewpoint"
      },
      "geometry": {
        "type": "Point",
        "coordinates": [
          11.2020524,
          46.3502246
        ]
      },
      "id": "node/454239257"
    },
    {
      "type": "Feature",
      "properties": {
        "@id": "node/454567272",
        "tourism": "viewpoint"
      },
      "geometry": {
        "type": "Point",
        "coordinates": [
          11.1093878,
          45.890108
        ]
      },
      "id": "node/454567272"
    },
    {
      "type": "Feature",
      "properties": {
        "@id": "node/455189820",
        "noexit": "yes",
        "tourism": "viewpoint",
        "wheelchair": "yes"
      },
      "geometry": {
        "type": "Point",
        "coordinates": [
          11.2472956,
          46.8175882
        ]
      },
      "id": "node/455189820"
    },
    {
      "type": "Feature",
      "properties": {
        "@id": "node/455202555",
        "tourism": "viewpoint"
      },
      "geometry": {
        "type": "Point",
        "coordinates": [
          10.4819036,
          46.7581485
        ]
      },
      "id": "node/455202555"
    },
    {
      "type": "Feature",
      "properties": {
        "@id": "node/455364237",
        "tourism": "viewpoint"
      },
      "geometry": {
        "type": "Point",
        "coordinates": [
          11.0171943,
          45.7196546
        ]
      },
      "id": "node/455364237"
    },
    {
      "type": "Feature",
      "properties": {
        "@id": "node/456347269",
        "tourism": "viewpoint"
      },
      "geometry": {
        "type": "Point",
        "coordinates": [
          10.5945103,
          46.0515347
        ]
      },
      "id": "node/456347269"
    },
    {
      "type": "Feature",
      "properties": {
        "@id": "node/456740237",
        "tourism": "viewpoint"
      },
      "geometry": {
        "type": "Point",
        "coordinates": [
          10.6003821,
          46.0535642
        ]
      },
      "id": "node/456740237"
    },
    {
      "type": "Feature",
      "properties": {
        "@id": "node/457107420",
        "name": "Terrazza Panoramica della Grotta",
        "tourism": "viewpoint"
      },
      "geometry": {
        "type": "Point",
        "coordinates": [
          11.1496375,
          46.0452498
        ]
      },
      "id": "node/457107420"
    },
    {
      "type": "Feature",
      "properties": {
        "@id": "node/457689389",
        "ele": "1534",
        "name": "Rotwand - Parete Rossa",
        "name:de": "Rotwand",
        "name:it": "Parete Rossa",
        "tourism": "viewpoint"
      },
      "geometry": {
        "type": "Point",
        "coordinates": [
          11.375742,
          46.4537521
        ]
      },
      "id": "node/457689389"
    },
    {
      "type": "Feature",
      "properties": {
        "@id": "node/458785635",
        "tourism": "viewpoint"
      },
      "geometry": {
        "type": "Point",
        "coordinates": [
          11.1077074,
          45.7344412
        ]
      },
      "id": "node/458785635"
    },
    {
      "type": "Feature",
      "properties": {
        "@id": "node/460394266",
        "tourism": "viewpoint"
      },
      "geometry": {
        "type": "Point",
        "coordinates": [
          12.0182017,
          46.8043896
        ]
      },
      "id": "node/460394266"
    },
    {
      "type": "Feature",
      "properties": {
        "@id": "node/460399480",
        "tourism": "viewpoint"
      },
      "geometry": {
        "type": "Point",
        "coordinates": [
          11.9807385,
          46.9163391
        ]
      },
      "id": "node/460399480"
    },
    {
      "type": "Feature",
      "properties": {
        "@id": "node/469206830",
        "direction": "17-145",
        "name": "Batteria Mitragliatrici / Maschinengewehr Batterie",
        "tourism": "viewpoint"
      },
      "geometry": {
        "type": "Point",
        "coordinates": [
          11.1853867,
          46.0510233
        ]
      },
      "id": "node/469206830"
    },
    {
      "type": "Feature",
      "properties": {
        "@id": "node/469267486",
        "tourism": "viewpoint"
      },
      "geometry": {
        "type": "Point",
        "coordinates": [
          10.9472186,
          45.7642109
        ]
      },
      "id": "node/469267486"
    },
    {
      "type": "Feature",
      "properties": {
        "@id": "node/474353548",
        "tourism": "viewpoint"
      },
      "geometry": {
        "type": "Point",
        "coordinates": [
          10.9672061,
          45.7154862
        ]
      },
      "id": "node/474353548"
    },
    {
      "type": "Feature",
      "properties": {
        "@id": "node/474982043",
        "ruins": "yes",
        "tourism": "viewpoint"
      },
      "geometry": {
        "type": "Point",
        "coordinates": [
          11.2379562,
          46.1117732
        ]
      },
      "id": "node/474982043"
    },
    {
      "type": "Feature",
      "properties": {
        "@id": "node/475738023",
        "tourism": "viewpoint"
      },
      "geometry": {
        "type": "Point",
        "coordinates": [
          11.6614497,
          46.9740826
        ]
      },
      "id": "node/475738023"
    },
    {
      "type": "Feature",
      "properties": {
        "@id": "node/479797707",
        "tourism": "viewpoint"
      },
      "geometry": {
        "type": "Point",
        "coordinates": [
          11.2724651,
          46.1822777
        ]
      },
      "id": "node/479797707"
    },
    {
      "type": "Feature",
      "properties": {
        "@id": "node/492588325",
        "name": "Königswarte - Veduta del Re",
        "name:de": "Königswarte",
        "name:it": "Veduta del Re",
        "tourism": "viewpoint"
      },
      "geometry": {
        "type": "Point",
        "coordinates": [
          11.5352218,
          46.5478883
        ]
      },
      "id": "node/492588325"
    },
    {
      "type": "Feature",
      "properties": {
        "@id": "node/493604218",
        "tourism": "viewpoint"
      },
      "geometry": {
        "type": "Point",
        "coordinates": [
          11.2775544,
          46.0719603
        ]
      },
      "id": "node/493604218"
    },
    {
      "type": "Feature",
      "properties": {
        "@id": "node/493604249",
        "tourism": "viewpoint"
      },
      "geometry": {
        "type": "Point",
        "coordinates": [
          11.2785243,
          46.0703882
        ]
      },
      "id": "node/493604249"
    },
    {
      "type": "Feature",
      "properties": {
        "@id": "node/493608137",
        "tourism": "viewpoint"
      },
      "geometry": {
        "type": "Point",
        "coordinates": [
          11.2765726,
          46.0706017
        ]
      },
      "id": "node/493608137"
    },
    {
      "type": "Feature",
      "properties": {
        "@id": "node/494068168",
        "tourism": "viewpoint"
      },
      "geometry": {
        "type": "Point",
        "coordinates": [
          10.6536779,
          45.8710092
        ]
      },
      "id": "node/494068168"
    },
    {
      "type": "Feature",
      "properties": {
        "@id": "node/494344568",
        "ele": "1582",
        "tourism": "viewpoint"
      },
      "geometry": {
        "type": "Point",
        "coordinates": [
          11.2724171,
          46.1063797
        ]
      },
      "id": "node/494344568"
    },
    {
      "type": "Feature",
      "properties": {
        "@id": "node/495191966",
        "tourism": "viewpoint"
      },
      "geometry": {
        "type": "Point",
        "coordinates": [
          11.3531811,
          45.9932132
        ]
      },
      "id": "node/495191966"
    },
    {
      "type": "Feature",
      "properties": {
        "@id": "node/495195842",
        "ele": "1039",
        "tourism": "viewpoint"
      },
      "geometry": {
        "type": "Point",
        "coordinates": [
          11.2900401,
          45.9762506
        ]
      },
      "id": "node/495195842"
    },
    {
      "type": "Feature",
      "properties": {
        "@id": "node/497713908",
        "name": "Matteo Thun'scher Gucker",
        "name:de": "Matteo Thun'scher Gucker",
        "tourism": "viewpoint",
        "wheelchair": "no"
      },
      "geometry": {
        "type": "Point",
        "coordinates": [
          11.1864426,
          46.6589252
        ]
      },
      "id": "node/497713908"
    },
    {
      "type": "Feature",
      "properties": {
        "@id": "node/497713918",
        "name": "Skywalk Trauttmansdorff",
        "name:de": "Skywalk Trauttmansdorff",
        "tourism": "viewpoint",
        "wheelchair": "no"
      },
      "geometry": {
        "type": "Point",
        "coordinates": [
          11.1871728,
          46.6610915
        ]
      },
      "id": "node/497713918"
    },
    {
      "type": "Feature",
      "properties": {
        "@id": "node/510906008",
        "tourism": "viewpoint"
      },
      "geometry": {
        "type": "Point",
        "coordinates": [
          10.8675582,
          45.8927337
        ]
      },
      "id": "node/510906008"
    },
    {
      "type": "Feature",
      "properties": {
        "@id": "node/516254582",
        "tourism": "viewpoint"
      },
      "geometry": {
        "type": "Point",
        "coordinates": [
          11.2258043,
          46.0878248
        ]
      },
      "id": "node/516254582"
    },
    {
      "type": "Feature",
      "properties": {
        "@id": "node/519188456",
        "tourism": "viewpoint"
      },
      "geometry": {
        "type": "Point",
        "coordinates": [
          11.0218164,
          46.1432257
        ]
      },
      "id": "node/519188456"
    },
    {
      "type": "Feature",
      "properties": {
        "@id": "node/528946015",
        "tourism": "viewpoint"
      },
      "geometry": {
        "type": "Point",
        "coordinates": [
          10.8766802,
          45.940926
        ]
      },
      "id": "node/528946015"
    },
    {
      "type": "Feature",
      "properties": {
        "@id": "node/528946079",
        "tourism": "viewpoint"
      },
      "geometry": {
        "type": "Point",
        "coordinates": [
          10.8892046,
          45.9531069
        ]
      },
      "id": "node/528946079"
    },
    {
      "type": "Feature",
      "properties": {
        "@id": "node/528946458",
        "tourism": "viewpoint"
      },
      "geometry": {
        "type": "Point",
        "coordinates": [
          10.8570409,
          45.933686
        ]
      },
      "id": "node/528946458"
    },
    {
      "type": "Feature",
      "properties": {
        "@id": "node/540304142",
        "tourism": "viewpoint"
      },
      "geometry": {
        "type": "Point",
        "coordinates": [
          11.2913605,
          46.0735244
        ]
      },
      "id": "node/540304142"
    },
    {
      "type": "Feature",
      "properties": {
        "@id": "node/540307090",
        "tourism": "viewpoint"
      },
      "geometry": {
        "type": "Point",
        "coordinates": [
          11.3021076,
          46.0749902
        ]
      },
      "id": "node/540307090"
    },
    {
      "type": "Feature",
      "properties": {
        "@id": "node/540590402",
        "tourism": "viewpoint"
      },
      "geometry": {
        "type": "Point",
        "coordinates": [
          10.69531,
          45.9400643
        ]
      },
      "id": "node/540590402"
    },
    {
      "type": "Feature",
      "properties": {
        "@id": "node/541643781",
        "tourism": "viewpoint"
      },
      "geometry": {
        "type": "Point",
        "coordinates": [
          11.2161469,
          46.6208762
        ]
      },
      "id": "node/541643781"
    },
    {
      "type": "Feature",
      "properties": {
        "@id": "node/548728508",
        "tourism": "viewpoint"
      },
      "geometry": {
        "type": "Point",
        "coordinates": [
          11.2781989,
          46.0697946
        ]
      },
      "id": "node/548728508"
    },
    {
      "type": "Feature",
      "properties": {
        "@id": "node/552915580",
        "tourism": "viewpoint"
      },
      "geometry": {
        "type": "Point",
        "coordinates": [
          11.2672094,
          46.1766869
        ]
      },
      "id": "node/552915580"
    },
    {
      "type": "Feature",
      "properties": {
        "@id": "node/552915633",
        "tourism": "viewpoint"
      },
      "geometry": {
        "type": "Point",
        "coordinates": [
          11.2702202,
          46.1752287
        ]
      },
      "id": "node/552915633"
    },
    {
      "type": "Feature",
      "properties": {
        "@id": "node/552923065",
        "tourism": "viewpoint"
      },
      "geometry": {
        "type": "Point",
        "coordinates": [
          11.2693631,
          46.1745959
        ]
      },
      "id": "node/552923065"
    },
    {
      "type": "Feature",
      "properties": {
        "@id": "node/558628542",
        "tourism": "viewpoint"
      },
      "geometry": {
        "type": "Point",
        "coordinates": [
          11.1135171,
          46.0730528
        ]
      },
      "id": "node/558628542"
    },
    {
      "type": "Feature",
      "properties": {
        "@id": "node/559245410",
        "direction": "41-166",
        "name": "Busa dei Orsi",
        "tourism": "viewpoint",
        "wheelchair": "yes"
      },
      "geometry": {
        "type": "Point",
        "coordinates": [
          11.1025212,
          46.0651427
        ]
      },
      "id": "node/559245410"
    },
    {
      "type": "Feature",
      "properties": {
        "@id": "node/559994883",
        "tourism": "viewpoint"
      },
      "geometry": {
        "type": "Point",
        "coordinates": [
          10.5261892,
          46.8383277
        ]
      },
      "id": "node/559994883"
    },
    {
      "type": "Feature",
      "properties": {
        "@id": "node/564836324",
        "tourism": "viewpoint"
      },
      "geometry": {
        "type": "Point",
        "coordinates": [
          11.0870204,
          46.0903926
        ]
      },
      "id": "node/564836324"
    },
    {
      "type": "Feature",
      "properties": {
        "@id": "node/568483393",
        "tourism": "viewpoint"
      },
      "geometry": {
        "type": "Point",
        "coordinates": [
          10.9918696,
          45.9001147
        ]
      },
      "id": "node/568483393"
    },
    {
      "type": "Feature",
      "properties": {
        "@id": "node/571829182",
        "name": "Croz Scambion",
        "tourism": "viewpoint"
      },
      "geometry": {
        "type": "Point",
        "coordinates": [
          11.217594,
          46.1757296
        ]
      },
      "id": "node/571829182"
    },
    {
      "type": "Feature",
      "properties": {
        "@id": "node/577248976",
        "tourism": "viewpoint"
      },
      "geometry": {
        "type": "Point",
        "coordinates": [
          10.6282419,
          45.8062923
        ]
      },
      "id": "node/577248976"
    },
    {
      "type": "Feature",
      "properties": {
        "@id": "node/579973182",
        "tourism": "viewpoint"
      },
      "geometry": {
        "type": "Point",
        "coordinates": [
          11.2335486,
          46.2181002
        ]
      },
      "id": "node/579973182"
    },
    {
      "type": "Feature",
      "properties": {
        "@id": "node/582899193",
        "tourism": "viewpoint"
      },
      "geometry": {
        "type": "Point",
        "coordinates": [
          11.2463406,
          46.0748724
        ]
      },
      "id": "node/582899193"
    },
    {
      "type": "Feature",
      "properties": {
        "@id": "node/601406281",
        "tourism": "viewpoint"
      },
      "geometry": {
        "type": "Point",
        "coordinates": [
          11.3405724,
          45.9774999
        ]
      },
      "id": "node/601406281"
    },
    {
      "type": "Feature",
      "properties": {
        "@id": "node/601406282",
        "tourism": "viewpoint"
      },
      "geometry": {
        "type": "Point",
        "coordinates": [
          11.3400171,
          45.9770567
        ]
      },
      "id": "node/601406282"
    },
    {
      "type": "Feature",
      "properties": {
        "@id": "node/611649392",
        "tourism": "viewpoint"
      },
      "geometry": {
        "type": "Point",
        "coordinates": [
          10.9696398,
          45.8471044
        ]
      },
      "id": "node/611649392"
    },
    {
      "type": "Feature",
      "properties": {
        "@id": "node/613186812",
        "tourism": "viewpoint"
      },
      "geometry": {
        "type": "Point",
        "coordinates": [
          11.0616389,
          46.345252
        ]
      },
      "id": "node/613186812"
    },
    {
      "type": "Feature",
      "properties": {
        "@id": "node/614868257",
        "description": "Torretta di avvistamento",
        "tourism": "viewpoint"
      },
      "geometry": {
        "type": "Point",
        "coordinates": [
          11.0145228,
          45.8549115
        ]
      },
      "id": "node/614868257"
    },
    {
      "type": "Feature",
      "properties": {
        "@id": "node/616324238",
        "leisure": "picnic_table",
        "tourism": "viewpoint"
      },
      "geometry": {
        "type": "Point",
        "coordinates": [
          11.2287292,
          46.4550466
        ]
      },
      "id": "node/616324238"
    },
    {
      "type": "Feature",
      "properties": {
        "@id": "node/616324270",
        "tourism": "viewpoint"
      },
      "geometry": {
        "type": "Point",
        "coordinates": [
          11.2294551,
          46.4603303
        ]
      },
      "id": "node/616324270"
    },
    {
      "type": "Feature",
      "properties": {
        "@id": "node/618787853",
        "description": "Torretta di avvistamento",
        "tourism": "viewpoint"
      },
      "geometry": {
        "type": "Point",
        "coordinates": [
          11.0180061,
          45.8558079
        ]
      },
      "id": "node/618787853"
    },
    {
      "type": "Feature",
      "properties": {
        "@id": "node/621349837",
        "tourism": "viewpoint"
      },
      "geometry": {
        "type": "Point",
        "coordinates": [
          10.8687823,
          45.8489122
        ]
      },
      "id": "node/621349837"
    },
    {
      "type": "Feature",
      "properties": {
        "@id": "node/623181578",
        "ele": "643",
        "name": "Wilder-Mann-Bühel - Col dell'uomo",
        "name:de": "Wilder-Mann-Bühel",
        "name:it": "Col dell'uomo",
        "natural": "peak",
        "tourism": "viewpoint",
        "wikidata": "Q31222369"
      },
      "geometry": {
        "type": "Point",
        "coordinates": [
          11.2997866,
          46.4423181
        ]
      },
      "id": "node/623181578"
    },
    {
      "type": "Feature",
      "properties": {
        "@id": "node/630959248",
        "name": "Poppekanzel - Pulpito di Cima Pope",
        "name:de": "Poppekanzel",
        "name:it": "Pulpito di Cima Pope",
        "source": "https://www.vienormali.it/montagna/cima_scheda.asp?cod=2783",
        "tourism": "viewpoint"
      },
      "geometry": {
        "type": "Point",
        "coordinates": [
          11.6007805,
          46.3916166
        ]
      },
      "id": "node/630959248"
    },
    {
      "type": "Feature",
      "properties": {
        "@id": "node/636869275",
        "tourism": "viewpoint"
      },
      "geometry": {
        "type": "Point",
        "coordinates": [
          10.8873276,
          45.8770107
        ]
      },
      "id": "node/636869275"
    },
    {
      "type": "Feature",
      "properties": {
        "@id": "node/639117360",
        "leisure": "picnic_table",
        "name": "Hundskofel",
        "tourism": "viewpoint"
      },
      "geometry": {
        "type": "Point",
        "coordinates": [
          11.2176924,
          46.4162913
        ]
      },
      "id": "node/639117360"
    },
    {
      "type": "Feature",
      "properties": {
        "@id": "node/639809925",
        "tourism": "viewpoint"
      },
      "geometry": {
        "type": "Point",
        "coordinates": [
          11.2223463,
          46.1792454
        ]
      },
      "id": "node/639809925"
    },
    {
      "type": "Feature",
      "properties": {
        "@id": "node/639810906",
        "tourism": "viewpoint"
      },
      "geometry": {
        "type": "Point",
        "coordinates": [
          11.2218169,
          46.182502
        ]
      },
      "id": "node/639810906"
    },
    {
      "type": "Feature",
      "properties": {
        "@id": "node/650103751",
        "tourism": "viewpoint"
      },
      "geometry": {
        "type": "Point",
        "coordinates": [
          11.2041802,
          46.1717021
        ]
      },
      "id": "node/650103751"
    },
    {
      "type": "Feature",
      "properties": {
        "@id": "node/652136208",
        "tourism": "viewpoint"
      },
      "geometry": {
        "type": "Point",
        "coordinates": [
          12.1992811,
          46.6414421
        ]
      },
      "id": "node/652136208"
    },
    {
      "type": "Feature",
      "properties": {
        "@id": "node/652144604",
        "tourism": "viewpoint"
      },
      "geometry": {
        "type": "Point",
        "coordinates": [
          12.210105,
          46.6385978
        ]
      },
      "id": "node/652144604"
    },
    {
      "type": "Feature",
      "properties": {
        "@id": "node/653346119",
        "tourism": "viewpoint"
      },
      "geometry": {
        "type": "Point",
        "coordinates": [
          11.1681029,
          46.1624897
        ]
      },
      "id": "node/653346119"
    },
    {
      "type": "Feature",
      "properties": {
        "@id": "node/655295662",
        "tourism": "viewpoint"
      },
      "geometry": {
        "type": "Point",
        "coordinates": [
          11.240302,
          46.4443835
        ]
      },
      "id": "node/655295662"
    },
    {
      "type": "Feature",
      "properties": {
        "@id": "node/661161953",
        "tourism": "viewpoint"
      },
      "geometry": {
        "type": "Point",
        "coordinates": [
          11.2425213,
          46.4435213
        ]
      },
      "id": "node/661161953"
    },
    {
      "type": "Feature",
      "properties": {
        "@id": "node/662569341",
        "tourism": "viewpoint"
      },
      "geometry": {
        "type": "Point",
        "coordinates": [
          11.2446269,
          46.4717753
        ]
      },
      "id": "node/662569341"
    },
    {
      "type": "Feature",
      "properties": {
        "@id": "node/663235422",
        "tourism": "viewpoint"
      },
      "geometry": {
        "type": "Point",
        "coordinates": [
          11.2021665,
          46.1694556
        ]
      },
      "id": "node/663235422"
    },
    {
      "type": "Feature",
      "properties": {
        "@id": "node/664480781",
        "tourism": "viewpoint"
      },
      "geometry": {
        "type": "Point",
        "coordinates": [
          11.231878,
          46.18649
        ]
      },
      "id": "node/664480781"
    },
    {
      "type": "Feature",
      "properties": {
        "@id": "node/666807235",
        "tourism": "viewpoint"
      },
      "geometry": {
        "type": "Point",
        "coordinates": [
          11.239346,
          46.0036803
        ]
      },
      "id": "node/666807235"
    },
    {
      "type": "Feature",
      "properties": {
        "@id": "node/669930692",
        "tourism": "viewpoint"
      },
      "geometry": {
        "type": "Point",
        "coordinates": [
          11.1382502,
          46.0338841
        ]
      },
      "id": "node/669930692"
    },
    {
      "type": "Feature",
      "properties": {
        "@id": "node/669952247",
        "tourism": "viewpoint"
      },
      "geometry": {
        "type": "Point",
        "coordinates": [
          11.1393667,
          46.032408
        ]
      },
      "id": "node/669952247"
    },
    {
      "type": "Feature",
      "properties": {
        "@id": "node/670093037",
        "tourism": "viewpoint"
      },
      "geometry": {
        "type": "Point",
        "coordinates": [
          11.1417539,
          46.0342365
        ]
      },
      "id": "node/670093037"
    },
    {
      "type": "Feature",
      "properties": {
        "@id": "node/670872776",
        "name": "Belvedere",
        "tourism": "viewpoint"
      },
      "geometry": {
        "type": "Point",
        "coordinates": [
          11.0220116,
          45.9413635
        ]
      },
      "id": "node/670872776"
    },
    {
      "type": "Feature",
      "properties": {
        "@id": "node/671044142",
        "tourism": "viewpoint"
      },
      "geometry": {
        "type": "Point",
        "coordinates": [
          11.2156307,
          46.2376363
        ]
      },
      "id": "node/671044142"
    },
    {
      "type": "Feature",
      "properties": {
        "@id": "node/671387458",
        "tourism": "viewpoint"
      },
      "geometry": {
        "type": "Point",
        "coordinates": [
          11.2430729,
          46.4295334
        ]
      },
      "id": "node/671387458"
    },
    {
      "type": "Feature",
      "properties": {
        "@id": "node/676873914",
        "direction": "200",
        "tourism": "viewpoint"
      },
      "geometry": {
        "type": "Point",
        "coordinates": [
          11.1904606,
          46.0281266
        ]
      },
      "id": "node/676873914"
    },
    {
      "type": "Feature",
      "properties": {
        "@id": "node/676875508",
        "tourism": "viewpoint"
      },
      "geometry": {
        "type": "Point",
        "coordinates": [
          11.1877757,
          46.0318436
        ]
      },
      "id": "node/676875508"
    },
    {
      "type": "Feature",
      "properties": {
        "@id": "node/694309619",
        "tourism": "viewpoint"
      },
      "geometry": {
        "type": "Point",
        "coordinates": [
          10.9014592,
          46.0865051
        ]
      },
      "id": "node/694309619"
    },
    {
      "type": "Feature",
      "properties": {
        "@id": "node/717435655",
        "name": "Kraitsegg",
        "tourism": "viewpoint"
      },
      "geometry": {
        "type": "Point",
        "coordinates": [
          10.95721,
          46.6479491
        ]
      },
      "id": "node/717435655"
    },
    {
      "type": "Feature",
      "properties": {
        "@id": "node/727634656",
        "name": "Obelisco",
        "tourism": "viewpoint"
      },
      "geometry": {
        "type": "Point",
        "coordinates": [
          11.0849375,
          45.7783217
        ]
      },
      "id": "node/727634656"
    },
    {
      "type": "Feature",
      "properties": {
        "@id": "node/729756124",
        "tourism": "viewpoint"
      },
      "geometry": {
        "type": "Point",
        "coordinates": [
          11.1859127,
          46.6900114
        ]
      },
      "id": "node/729756124"
    },
    {
      "type": "Feature",
      "properties": {
        "@id": "node/731328407",
        "tourism": "viewpoint"
      },
      "geometry": {
        "type": "Point",
        "coordinates": [
          11.2229333,
          46.7044367
        ]
      },
      "id": "node/731328407"
    },
    {
      "type": "Feature",
      "properties": {
        "@id": "node/731328417",
        "tourism": "viewpoint"
      },
      "geometry": {
        "type": "Point",
        "coordinates": [
          11.2222393,
          46.707051
        ]
      },
      "id": "node/731328417"
    },
    {
      "type": "Feature",
      "properties": {
        "@id": "node/736875069",
        "name": "Erdpyramiden - Piramidi di sabbia",
        "name:de": "Erdpyramiden",
        "name:it": "Piramidi di sabbia",
        "tourism": "viewpoint"
      },
      "geometry": {
        "type": "Point",
        "coordinates": [
          11.145203,
          46.6980102
        ]
      },
      "id": "node/736875069"
    },
    {
      "type": "Feature",
      "properties": {
        "@id": "node/736875137",
        "name": "Erdpyramiden - Piramidi di sabbia",
        "name:de": "Erdpyramiden",
        "name:it": "Piramidi di sabbia",
        "tourism": "viewpoint"
      },
      "geometry": {
        "type": "Point",
        "coordinates": [
          11.1453271,
          46.6975529
        ]
      },
      "id": "node/736875137"
    },
    {
      "type": "Feature",
      "properties": {
        "@id": "node/739320797",
        "tourism": "viewpoint"
      },
      "geometry": {
        "type": "Point",
        "coordinates": [
          11.2994108,
          46.4304662
        ]
      },
      "id": "node/739320797"
    },
    {
      "type": "Feature",
      "properties": {
        "@id": "node/743286114",
        "tourism": "viewpoint"
      },
      "geometry": {
        "type": "Point",
        "coordinates": [
          11.2998405,
          46.4469135
        ]
      },
      "id": "node/743286114"
    },
    {
      "type": "Feature",
      "properties": {
        "@id": "node/751963104",
        "tourism": "viewpoint"
      },
      "geometry": {
        "type": "Point",
        "coordinates": [
          11.4710603,
          46.5392915
        ]
      },
      "id": "node/751963104"
    },
    {
      "type": "Feature",
      "properties": {
        "@id": "node/751963139",
        "tourism": "viewpoint"
      },
      "geometry": {
        "type": "Point",
        "coordinates": [
          11.4710807,
          46.5437106
        ]
      },
      "id": "node/751963139"
    },
    {
      "type": "Feature",
      "properties": {
        "@id": "node/759978706",
        "direction": "120",
        "tourism": "viewpoint"
      },
      "geometry": {
        "type": "Point",
        "coordinates": [
          11.442427,
          46.5370231
        ]
      },
      "id": "node/759978706"
    },
    {
      "type": "Feature",
      "properties": {
        "@id": "node/761573229",
        "name": "Plamortboden - Altopiano Plan dei Morti",
        "tourism": "viewpoint"
      },
      "geometry": {
        "type": "Point",
        "coordinates": [
          10.5276455,
          46.8380354
        ]
      },
      "id": "node/761573229"
    },
    {
      "type": "Feature",
      "properties": {
        "@id": "node/763615685",
        "amenity": "bench",
        "tourism": "viewpoint"
      },
      "geometry": {
        "type": "Point",
        "coordinates": [
          11.4726452,
          46.8656728
        ]
      },
      "id": "node/763615685"
    },
    {
      "type": "Feature",
      "properties": {
        "@id": "node/765752691",
        "ele": "1019",
        "name": "Burgstalleck - Castelliere",
        "name:de": "Burgstalleck",
        "name:it": "Castelliere",
        "source": "IGM 1:25000;https://www.kompass.de/wanderkarte/tour-planen/",
        "tourism": "viewpoint"
      },
      "geometry": {
        "type": "Point",
        "coordinates": [
          11.2073329,
          46.5209235
        ]
      },
      "id": "node/765752691"
    },
    {
      "type": "Feature",
      "properties": {
        "@id": "node/765788348",
        "ele": "1990",
        "name": "Busa Brodeghera",
        "place": "locality",
        "tourism": "viewpoint"
      },
      "geometry": {
        "type": "Point",
        "coordinates": [
          10.8873615,
          45.8064678
        ]
      },
      "id": "node/765788348"
    },
    {
      "type": "Feature",
      "properties": {
        "@id": "node/766870052",
        "tourism": "viewpoint"
      },
      "geometry": {
        "type": "Point",
        "coordinates": [
          11.3255212,
          46.3325923
        ]
      },
      "id": "node/766870052"
    },
    {
      "type": "Feature",
      "properties": {
        "@id": "node/768593607",
        "tourism": "viewpoint"
      },
      "geometry": {
        "type": "Point",
        "coordinates": [
          11.2865275,
          46.3939029
        ]
      },
      "id": "node/768593607"
    },
    {
      "type": "Feature",
      "properties": {
        "@id": "node/768713663",
        "tourism": "viewpoint"
      },
      "geometry": {
        "type": "Point",
        "coordinates": [
          11.1919154,
          46.5576637
        ]
      },
      "id": "node/768713663"
    },
    {
      "type": "Feature",
      "properties": {
        "@id": "node/769072677",
        "tourism": "viewpoint"
      },
      "geometry": {
        "type": "Point",
        "coordinates": [
          11.1003508,
          46.055993
        ]
      },
      "id": "node/769072677"
    },
    {
      "type": "Feature",
      "properties": {
        "@id": "node/769072685",
        "tourism": "viewpoint"
      },
      "geometry": {
        "type": "Point",
        "coordinates": [
          11.1015648,
          46.0505138
        ]
      },
      "id": "node/769072685"
    },
    {
      "type": "Feature",
      "properties": {
        "@id": "node/802196772",
        "aerialway": "station",
        "name": "Palon",
        "tourism": "viewpoint"
      },
      "geometry": {
        "type": "Point",
        "coordinates": [
          11.0587172,
          46.0269684
        ]
      },
      "id": "node/802196772"
    },
    {
      "type": "Feature",
      "properties": {
        "@id": "node/803262915",
        "tourism": "viewpoint"
      },
      "geometry": {
        "type": "Point",
        "coordinates": [
          11.7449284,
          46.1346388
        ]
      },
      "id": "node/803262915"
    },
    {
      "type": "Feature",
      "properties": {
        "@id": "node/803262935",
        "tourism": "viewpoint"
      },
      "geometry": {
        "type": "Point",
        "coordinates": [
          11.7536462,
          46.1313433
        ]
      },
      "id": "node/803262935"
    },
    {
      "type": "Feature",
      "properties": {
        "@id": "node/803262982",
        "tourism": "viewpoint"
      },
      "geometry": {
        "type": "Point",
        "coordinates": [
          11.7447602,
          46.1344958
        ]
      },
      "id": "node/803262982"
    },
    {
      "type": "Feature",
      "properties": {
        "@id": "node/803263000",
        "tourism": "viewpoint"
      },
      "geometry": {
        "type": "Point",
        "coordinates": [
          11.7451005,
          46.134687
        ]
      },
      "id": "node/803263000"
    },
    {
      "type": "Feature",
      "properties": {
        "@id": "node/803263017",
        "tourism": "viewpoint"
      },
      "geometry": {
        "type": "Point",
        "coordinates": [
          11.7452113,
          46.1348295
        ]
      },
      "id": "node/803263017"
    },
    {
      "type": "Feature",
      "properties": {
        "@id": "node/804157578",
        "tourism": "viewpoint"
      },
      "geometry": {
        "type": "Point",
        "coordinates": [
          11.6035873,
          46.8603294
        ]
      },
      "id": "node/804157578"
    },
    {
      "type": "Feature",
      "properties": {
        "@id": "node/811642920",
        "name": "Lobiser Schupfen",
        "tourism": "viewpoint"
      },
      "geometry": {
        "type": "Point",
        "coordinates": [
          12.0407134,
          46.94167
        ]
      },
      "id": "node/811642920"
    },
    {
      "type": "Feature",
      "properties": {
        "@id": "node/811716672",
        "name": "Pietersteiner Alm - Malga della Pietra",
        "name:de": "Pietersteiner Alm",
        "name:it": "Malga della Pietra",
        "tourism": "viewpoint"
      },
      "geometry": {
        "type": "Point",
        "coordinates": [
          11.9115849,
          46.9084547
        ]
      },
      "id": "node/811716672"
    },
    {
      "type": "Feature",
      "properties": {
        "@id": "node/811749538",
        "ele": "2010",
        "name": "Schlafhäuser",
        "tourism": "viewpoint"
      },
      "geometry": {
        "type": "Point",
        "coordinates": [
          12.0004363,
          46.9357132
        ]
      },
      "id": "node/811749538"
    },
    {
      "type": "Feature",
      "properties": {
        "@id": "node/812137523",
        "amenity": "bench",
        "backrest": "yes",
        "tourism": "viewpoint"
      },
      "geometry": {
        "type": "Point",
        "coordinates": [
          10.8964029,
          45.8610737
        ]
      },
      "id": "node/812137523"
    },
    {
      "type": "Feature",
      "properties": {
        "@id": "node/812138422",
        "amenity": "bench",
        "backrest": "yes",
        "tourism": "viewpoint"
      },
      "geometry": {
        "type": "Point",
        "coordinates": [
          10.898933,
          45.8642301
        ]
      },
      "id": "node/812138422"
    },
    {
      "type": "Feature",
      "properties": {
        "@id": "node/813171800",
        "tourism": "viewpoint"
      },
      "geometry": {
        "type": "Point",
        "coordinates": [
          10.9003041,
          45.7927452
        ]
      },
      "id": "node/813171800"
    },
    {
      "type": "Feature",
      "properties": {
        "@id": "node/834535143",
        "tourism": "viewpoint"
      },
      "geometry": {
        "type": "Point",
        "coordinates": [
          11.1860658,
          46.5179999
        ]
      },
      "id": "node/834535143"
    },
    {
      "type": "Feature",
      "properties": {
        "@id": "node/835950917",
        "name": "Belvedere Bondai",
        "tourism": "viewpoint"
      },
      "geometry": {
        "type": "Point",
        "coordinates": [
          10.9164815,
          46.0778345
        ]
      },
      "id": "node/835950917"
    },
    {
      "type": "Feature",
      "properties": {
        "@id": "node/835951002",
        "name": "Belvedere Dolomiti",
        "tourism": "viewpoint"
      },
      "geometry": {
        "type": "Point",
        "coordinates": [
          10.914722,
          46.0771047
        ]
      },
      "id": "node/835951002"
    },
    {
      "type": "Feature",
      "properties": {
        "@id": "node/843755863",
        "tourism": "viewpoint"
      },
      "geometry": {
        "type": "Point",
        "coordinates": [
          11.3063267,
          46.4397757
        ]
      },
      "id": "node/843755863"
    },
    {
      "type": "Feature",
      "properties": {
        "@id": "node/848796873",
        "tourism": "viewpoint"
      },
      "geometry": {
        "type": "Point",
        "coordinates": [
          11.066232,
          46.2357521
        ]
      },
      "id": "node/848796873"
    },
    {
      "type": "Feature",
      "properties": {
        "@id": "node/848796980",
        "tourism": "viewpoint"
      },
      "geometry": {
        "type": "Point",
        "coordinates": [
          11.0664132,
          46.2354061
        ]
      },
      "id": "node/848796980"
    },
    {
      "type": "Feature",
      "properties": {
        "@id": "node/848797395",
        "tourism": "viewpoint"
      },
      "geometry": {
        "type": "Point",
        "coordinates": [
          11.0676156,
          46.2456183
        ]
      },
      "id": "node/848797395"
    },
    {
      "type": "Feature",
      "properties": {
        "@id": "node/849558969",
        "direction": "0-135",
        "tourism": "viewpoint"
      },
      "geometry": {
        "type": "Point",
        "coordinates": [
          11.2832214,
          46.3678914
        ]
      },
      "id": "node/849558969"
    },
    {
      "type": "Feature",
      "properties": {
        "@id": "node/849559066",
        "tourism": "viewpoint"
      },
      "geometry": {
        "type": "Point",
        "coordinates": [
          11.2809232,
          46.3789471
        ]
      },
      "id": "node/849559066"
    },
    {
      "type": "Feature",
      "properties": {
        "@id": "node/858601959",
        "name": "Greiter Ried",
        "tourism": "viewpoint"
      },
      "geometry": {
        "type": "Point",
        "coordinates": [
          11.1353364,
          46.6210066
        ]
      },
      "id": "node/858601959"
    },
    {
      "type": "Feature",
      "properties": {
        "@id": "node/860566519",
        "tourism": "viewpoint"
      },
      "geometry": {
        "type": "Point",
        "coordinates": [
          10.9184909,
          45.9475146
        ]
      },
      "id": "node/860566519"
    },
    {
      "type": "Feature",
      "properties": {
        "@id": "node/861358638",
        "tourism": "viewpoint"
      },
      "geometry": {
        "type": "Point",
        "coordinates": [
          11.1544742,
          46.52607
        ]
      },
      "id": "node/861358638"
    },
    {
      "type": "Feature",
      "properties": {
        "@id": "node/862848001",
        "tourism": "viewpoint"
      },
      "geometry": {
        "type": "Point",
        "coordinates": [
          10.9565265,
          45.9763856
        ]
      },
      "id": "node/862848001"
    },
    {
      "type": "Feature",
      "properties": {
        "@id": "node/863819998",
        "tourism": "viewpoint"
      },
      "geometry": {
        "type": "Point",
        "coordinates": [
          11.1579303,
          46.0173191
        ]
      },
      "id": "node/863819998"
    },
    {
      "type": "Feature",
      "properties": {
        "@id": "node/863821588",
        "tourism": "viewpoint"
      },
      "geometry": {
        "type": "Point",
        "coordinates": [
          11.3169858,
          46.0417064
        ]
      },
      "id": "node/863821588"
    },
    {
      "type": "Feature",
      "properties": {
        "@id": "node/866855247",
        "amenity": "shelter",
        "tourism": "viewpoint"
      },
      "geometry": {
        "type": "Point",
        "coordinates": [
          11.2426969,
          46.4395682
        ]
      },
      "id": "node/866855247"
    },
    {
      "type": "Feature",
      "properties": {
        "@id": "node/874125142",
        "tourism": "viewpoint"
      },
      "geometry": {
        "type": "Point",
        "coordinates": [
          11.671181,
          46.1240504
        ]
      },
      "id": "node/874125142"
    },
    {
      "type": "Feature",
      "properties": {
        "@id": "node/878327433",
        "name": "Ortlerblick",
        "tourism": "viewpoint"
      },
      "geometry": {
        "type": "Point",
        "coordinates": [
          10.5575466,
          46.5815861
        ]
      },
      "id": "node/878327433"
    },
    {
      "type": "Feature",
      "properties": {
        "@id": "node/880383557",
        "historic": "wayside_cross",
        "man_made": "cross",
        "material": "steel",
        "name": "Ave Cruz",
        "tourism": "viewpoint"
      },
      "geometry": {
        "type": "Point",
        "coordinates": [
          10.8675701,
          45.7588876
        ]
      },
      "id": "node/880383557"
    },
    {
      "type": "Feature",
      "properties": {
        "@id": "node/883730001",
        "ele": "1893",
        "name": "Piz de Corn",
        "name:de": "Karspitze",
        "natural": "peak",
        "summit:cross": "yes",
        "summit:register": "yes",
        "tourism": "viewpoint"
      },
      "geometry": {
        "type": "Point",
        "coordinates": [
          11.9192958,
          46.688573
        ]
      },
      "id": "node/883730001"
    },
    {
      "type": "Feature",
      "properties": {
        "@id": "node/884474249",
        "tourism": "viewpoint"
      },
      "geometry": {
        "type": "Point",
        "coordinates": [
          10.5991655,
          46.8149087
        ]
      },
      "id": "node/884474249"
    },
    {
      "type": "Feature",
      "properties": {
        "@id": "node/886374682",
        "tourism": "viewpoint"
      },
      "geometry": {
        "type": "Point",
        "coordinates": [
          10.6920583,
          46.6338679
        ]
      },
      "id": "node/886374682"
    },
    {
      "type": "Feature",
      "properties": {
        "@id": "node/886616323",
        "tourism": "viewpoint"
      },
      "geometry": {
        "type": "Point",
        "coordinates": [
          10.888034,
          45.834809
        ]
      },
      "id": "node/886616323"
    },
    {
      "type": "Feature",
      "properties": {
        "@id": "node/889034845",
        "tourism": "viewpoint"
      },
      "geometry": {
        "type": "Point",
        "coordinates": [
          10.5530116,
          46.6062018
        ]
      },
      "id": "node/889034845"
    },
    {
      "type": "Feature",
      "properties": {
        "@id": "node/889035069",
        "tourism": "viewpoint"
      },
      "geometry": {
        "type": "Point",
        "coordinates": [
          10.5496806,
          46.6024239
        ]
      },
      "id": "node/889035069"
    },
    {
      "type": "Feature",
      "properties": {
        "@id": "node/893193705",
        "tourism": "viewpoint"
      },
      "geometry": {
        "type": "Point",
        "coordinates": [
          12.0408816,
          46.7909562
        ]
      },
      "id": "node/893193705"
    },
    {
      "type": "Feature",
      "properties": {
        "@id": "node/894371091",
        "tourism": "viewpoint"
      },
      "geometry": {
        "type": "Point",
        "coordinates": [
          10.9695777,
          46.6506137
        ]
      },
      "id": "node/894371091"
    },
    {
      "type": "Feature",
      "properties": {
        "@id": "node/897631428",
        "tourism": "viewpoint"
      },
      "geometry": {
        "type": "Point",
        "coordinates": [
          11.2267918,
          46.7000644
        ]
      },
      "id": "node/897631428"
    },
    {
      "type": "Feature",
      "properties": {
        "@id": "node/904488931",
        "man_made": "cross",
        "tourism": "viewpoint"
      },
      "geometry": {
        "type": "Point",
        "coordinates": [
          11.039447,
          45.9908698
        ]
      },
      "id": "node/904488931"
    },
    {
      "type": "Feature",
      "properties": {
        "@id": "node/910787221",
        "direction": "N",
        "name": "Polsa",
        "tourism": "viewpoint"
      },
      "geometry": {
        "type": "Point",
        "coordinates": [
          11.1942215,
          45.9724111
        ]
      },
      "id": "node/910787221"
    },
    {
      "type": "Feature",
      "properties": {
        "@id": "node/913866391",
        "tourism": "viewpoint"
      },
      "geometry": {
        "type": "Point",
        "coordinates": [
          11.998336,
          46.5654079
        ]
      },
      "id": "node/913866391"
    },
    {
      "type": "Feature",
      "properties": {
        "@id": "node/914820943",
        "layer": "-1",
        "tourism": "viewpoint"
      },
      "geometry": {
        "type": "Point",
        "coordinates": [
          11.2076103,
          46.5206965
        ]
      },
      "id": "node/914820943"
    },
    {
      "type": "Feature",
      "properties": {
        "@id": "node/924003634",
        "tourism": "viewpoint"
      },
      "geometry": {
        "type": "Point",
        "coordinates": [
          12.371804,
          46.6661702
        ]
      },
      "id": "node/924003634"
    },
    {
      "type": "Feature",
      "properties": {
        "@id": "node/924003640",
        "tourism": "viewpoint"
      },
      "geometry": {
        "type": "Point",
        "coordinates": [
          12.3692161,
          46.6605539
        ]
      },
      "id": "node/924003640"
    },
    {
      "type": "Feature",
      "properties": {
        "@id": "node/928020933",
        "name": "Bellavista",
        "tourism": "viewpoint"
      },
      "geometry": {
        "type": "Point",
        "coordinates": [
          11.2336523,
          46.1481744
        ]
      },
      "id": "node/928020933"
    },
    {
      "type": "Feature",
      "properties": {
        "@id": "node/935635647",
        "tourism": "viewpoint"
      },
      "geometry": {
        "type": "Point",
        "coordinates": [
          10.9639856,
          45.9202387
        ]
      },
      "id": "node/935635647"
    },
    {
      "type": "Feature",
      "properties": {
        "@id": "node/942677719",
        "tourism": "viewpoint"
      },
      "geometry": {
        "type": "Point",
        "coordinates": [
          10.8598333,
          45.8767804
        ]
      },
      "id": "node/942677719"
    },
    {
      "type": "Feature",
      "properties": {
        "@id": "node/943854852",
        "tourism": "viewpoint"
      },
      "geometry": {
        "type": "Point",
        "coordinates": [
          11.0389007,
          46.3673683
        ]
      },
      "id": "node/943854852"
    },
    {
      "type": "Feature",
      "properties": {
        "@id": "node/944218119",
        "tourism": "viewpoint"
      },
      "geometry": {
        "type": "Point",
        "coordinates": [
          11.1250343,
          46.1335123
        ]
      },
      "id": "node/944218119"
    },
    {
      "type": "Feature",
      "properties": {
        "@id": "node/963761962",
        "tourism": "viewpoint"
      },
      "geometry": {
        "type": "Point",
        "coordinates": [
          10.8312936,
          45.8594741
        ]
      },
      "id": "node/963761962"
    },
    {
      "type": "Feature",
      "properties": {
        "@id": "node/979735566",
        "ele": "600",
        "name": "Belvedere della Grola",
        "tourism": "viewpoint"
      },
      "geometry": {
        "type": "Point",
        "coordinates": [
          10.8326,
          45.8767962
        ]
      },
      "id": "node/979735566"
    },
    {
      "type": "Feature",
      "properties": {
        "@id": "node/989258588",
        "tourism": "viewpoint"
      },
      "geometry": {
        "type": "Point",
        "coordinates": [
          11.0452154,
          45.8408867
        ]
      },
      "id": "node/989258588"
    },
    {
      "type": "Feature",
      "properties": {
        "@id": "node/990937542",
        "ele": "1006",
        "tourism": "viewpoint"
      },
      "geometry": {
        "type": "Point",
        "coordinates": [
          11.1570185,
          46.1764049
        ]
      },
      "id": "node/990937542"
    },
    {
      "type": "Feature",
      "properties": {
        "@id": "node/1023263783",
        "tourism": "viewpoint"
      },
      "geometry": {
        "type": "Point",
        "coordinates": [
          11.1231796,
          46.2239871
        ]
      },
      "id": "node/1023263783"
    },
    {
      "type": "Feature",
      "properties": {
        "@id": "node/1033515294",
        "name": "Sparaverom",
        "tourism": "viewpoint"
      },
      "geometry": {
        "type": "Point",
        "coordinates": [
          11.0454089,
          45.9483633
        ]
      },
      "id": "node/1033515294"
    },
    {
      "type": "Feature",
      "properties": {
        "@id": "node/1080533781",
        "amenity": "bench",
        "backrest": "yes",
        "colour": "brown",
        "material": "wood",
        "name": "San Colombano",
        "seats": "8",
        "tourism": "viewpoint"
      },
      "geometry": {
        "type": "Point",
        "coordinates": [
          11.0635084,
          45.8780478
        ]
      },
      "id": "node/1080533781"
    },
    {
      "type": "Feature",
      "properties": {
        "@id": "node/1083450801",
        "tourism": "viewpoint"
      },
      "geometry": {
        "type": "Point",
        "coordinates": [
          11.3423894,
          46.4644654
        ]
      },
      "id": "node/1083450801"
    },
    {
      "type": "Feature",
      "properties": {
        "@id": "node/1083625992",
        "ele": "2394",
        "name": "Piz de Pares",
        "name:de": "Paresberg",
        "name:it": "Pares",
        "name:lld": "Piz de Pares",
        "natural": "peak",
        "summit:cross": "no",
        "tourism": "viewpoint",
        "wikidata": "Q2052187",
        "wikipedia": "it:Pares"
      },
      "geometry": {
        "type": "Point",
        "coordinates": [
          11.9702885,
          46.6602134
        ]
      },
      "id": "node/1083625992"
    },
    {
      "type": "Feature",
      "properties": {
        "@id": "node/1126427228",
        "ele": "2476",
        "name": "Santner Kanzele",
        "tourism": "viewpoint"
      },
      "geometry": {
        "type": "Point",
        "coordinates": [
          11.5729067,
          46.5212416
        ]
      },
      "id": "node/1126427228"
    },
    {
      "type": "Feature",
      "properties": {
        "@id": "node/1126513599",
        "direction": "20",
        "tourism": "viewpoint"
      },
      "geometry": {
        "type": "Point",
        "coordinates": [
          11.0222251,
          46.1862003
        ]
      },
      "id": "node/1126513599"
    },
    {
      "type": "Feature",
      "properties": {
        "@id": "node/1128857415",
        "tourism": "viewpoint"
      },
      "geometry": {
        "type": "Point",
        "coordinates": [
          11.1810257,
          46.3115947
        ]
      },
      "id": "node/1128857415"
    },
    {
      "type": "Feature",
      "properties": {
        "@id": "node/1128857418",
        "tourism": "viewpoint"
      },
      "geometry": {
        "type": "Point",
        "coordinates": [
          11.1817032,
          46.3122746
        ]
      },
      "id": "node/1128857418"
    },
    {
      "type": "Feature",
      "properties": {
        "@id": "node/1137931057",
        "tourism": "viewpoint"
      },
      "geometry": {
        "type": "Point",
        "coordinates": [
          11.2413719,
          46.4265196
        ]
      },
      "id": "node/1137931057"
    },
    {
      "type": "Feature",
      "properties": {
        "@id": "node/1137945532",
        "tourism": "viewpoint"
      },
      "geometry": {
        "type": "Point",
        "coordinates": [
          11.2414197,
          46.3954482
        ]
      },
      "id": "node/1137945532"
    },
    {
      "type": "Feature",
      "properties": {
        "@id": "node/1137954629",
        "tourism": "viewpoint"
      },
      "geometry": {
        "type": "Point",
        "coordinates": [
          11.272229,
          46.3778406
        ]
      },
      "id": "node/1137954629"
    },
    {
      "type": "Feature",
      "properties": {
        "@id": "node/1139425226",
        "description": "Torretta di avvistamento",
        "network": "Orme dei dinosauri",
        "tourism": "viewpoint"
      },
      "geometry": {
        "type": "Point",
        "coordinates": [
          11.0365193,
          45.845778
        ]
      },
      "id": "node/1139425226"
    },
    {
      "type": "Feature",
      "properties": {
        "@id": "node/1164086663",
        "direction": "90",
        "tourism": "viewpoint"
      },
      "geometry": {
        "type": "Point",
        "coordinates": [
          11.2263549,
          46.4063481
        ]
      },
      "id": "node/1164086663"
    },
    {
      "type": "Feature",
      "properties": {
        "@id": "node/1164205351",
        "tourism": "viewpoint"
      },
      "geometry": {
        "type": "Point",
        "coordinates": [
          10.8659393,
          46.6386443
        ]
      },
      "id": "node/1164205351"
    },
    {
      "type": "Feature",
      "properties": {
        "@id": "node/1164208432",
        "tourism": "viewpoint"
      },
      "geometry": {
        "type": "Point",
        "coordinates": [
          10.8588469,
          46.6377242
        ]
      },
      "id": "node/1164208432"
    },
    {
      "type": "Feature",
      "properties": {
        "@id": "node/1164210951",
        "tourism": "viewpoint"
      },
      "geometry": {
        "type": "Point",
        "coordinates": [
          10.8547213,
          46.6383703
        ]
      },
      "id": "node/1164210951"
    },
    {
      "type": "Feature",
      "properties": {
        "@id": "node/1177995710",
        "tourism": "viewpoint"
      },
      "geometry": {
        "type": "Point",
        "coordinates": [
          11.2445554,
          46.4871697
        ]
      },
      "id": "node/1177995710"
    },
    {
      "type": "Feature",
      "properties": {
        "@id": "node/1178006842",
        "tourism": "viewpoint"
      },
      "geometry": {
        "type": "Point",
        "coordinates": [
          11.228977,
          46.5035357
        ]
      },
      "id": "node/1178006842"
    },
    {
      "type": "Feature",
      "properties": {
        "@id": "node/1189935650",
        "tourism": "viewpoint"
      },
      "geometry": {
        "type": "Point",
        "coordinates": [
          11.2706736,
          46.1807514
        ]
      },
      "id": "node/1189935650"
    },
    {
      "type": "Feature",
      "properties": {
        "@id": "node/1189935652",
        "tourism": "viewpoint"
      },
      "geometry": {
        "type": "Point",
        "coordinates": [
          11.2689495,
          46.1822664
        ]
      },
      "id": "node/1189935652"
    },
    {
      "type": "Feature",
      "properties": {
        "@id": "node/1189935901",
        "tourism": "viewpoint"
      },
      "geometry": {
        "type": "Point",
        "coordinates": [
          11.2715812,
          46.182327
        ]
      },
      "id": "node/1189935901"
    },
    {
      "type": "Feature",
      "properties": {
        "@id": "node/1192946543",
        "name": "Ibsenplatz",
        "tourism": "viewpoint"
      },
      "geometry": {
        "type": "Point",
        "coordinates": [
          11.4405821,
          46.943434
        ]
      },
      "id": "node/1192946543"
    },
    {
      "type": "Feature",
      "properties": {
        "@id": "node/1194220379",
        "tourism": "viewpoint"
      },
      "geometry": {
        "type": "Point",
        "coordinates": [
          11.665475,
          46.7869384
        ]
      },
      "id": "node/1194220379"
    },
    {
      "type": "Feature",
      "properties": {
        "@id": "node/1216633474",
        "fixme": "exact loc ?",
        "tourism": "viewpoint"
      },
      "geometry": {
        "type": "Point",
        "coordinates": [
          10.9016637,
          46.3364704
        ]
      },
      "id": "node/1216633474"
    },
    {
      "type": "Feature",
      "properties": {
        "@id": "node/1226652361",
        "name": "Vista sulla vallagarina da Malga Tof",
        "tourism": "viewpoint"
      },
      "geometry": {
        "type": "Point",
        "coordinates": [
          11.0494183,
          45.8442789
        ]
      },
      "id": "node/1226652361"
    },
    {
      "type": "Feature",
      "properties": {
        "@id": "node/1247248713",
        "tourism": "viewpoint"
      },
      "geometry": {
        "type": "Point",
        "coordinates": [
          11.4167811,
          46.2740928
        ]
      },
      "id": "node/1247248713"
    },
    {
      "type": "Feature",
      "properties": {
        "@id": "node/1255430555",
        "tourism": "viewpoint"
      },
      "geometry": {
        "type": "Point",
        "coordinates": [
          11.3066073,
          46.3413567
        ]
      },
      "id": "node/1255430555"
    },
    {
      "type": "Feature",
      "properties": {
        "@id": "node/1260053991",
        "name": "Pulpito - Kanzel",
        "name:de": "Kanzel",
        "name:it": "Pulpito",
        "source": "https://www.facebook.com/events/328567863984562/",
        "tourism": "viewpoint"
      },
      "geometry": {
        "type": "Point",
        "coordinates": [
          11.2940336,
          46.3065255
        ]
      },
      "id": "node/1260053991"
    },
    {
      "type": "Feature",
      "properties": {
        "@id": "node/1269279550",
        "name": "Passo Due Sassi",
        "name:it": "Passo Due Sassi",
        "tourism": "viewpoint"
      },
      "geometry": {
        "type": "Point",
        "coordinates": [
          10.9264924,
          45.9259977
        ]
      },
      "id": "node/1269279550"
    },
    {
      "type": "Feature",
      "properties": {
        "@id": "node/1293772289",
        "name": "Biotopo Taio",
        "tourism": "viewpoint"
      },
      "geometry": {
        "type": "Point",
        "coordinates": [
          11.0828607,
          45.9230372
        ]
      },
      "id": "node/1293772289"
    },
    {
      "type": "Feature",
      "properties": {
        "@id": "node/1293772608",
        "name": "Biotopo Taio - Torretta di Avvistamento",
        "tourism": "viewpoint"
      },
      "geometry": {
        "type": "Point",
        "coordinates": [
          11.0798615,
          45.9250281
        ]
      },
      "id": "node/1293772608"
    },
    {
      "type": "Feature",
      "properties": {
        "@id": "node/1302120836",
        "tourism": "viewpoint"
      },
      "geometry": {
        "type": "Point",
        "coordinates": [
          11.1255502,
          46.2243525
        ]
      },
      "id": "node/1302120836"
    },
    {
      "type": "Feature",
      "properties": {
        "@id": "node/1307288287",
        "direction": "80",
        "name": "Dos dei Brusadi",
        "tourism": "viewpoint"
      },
      "geometry": {
        "type": "Point",
        "coordinates": [
          11.1866545,
          46.1259025
        ]
      },
      "id": "node/1307288287"
    },
    {
      "type": "Feature",
      "properties": {
        "@id": "node/1307848213",
        "man_made": "tower",
        "tourism": "viewpoint",
        "tower:type": "observation"
      },
      "geometry": {
        "type": "Point",
        "coordinates": [
          10.8318912,
          45.997316
        ]
      },
      "id": "node/1307848213"
    },
    {
      "type": "Feature",
      "properties": {
        "@id": "node/1314455370",
        "tourism": "viewpoint"
      },
      "geometry": {
        "type": "Point",
        "coordinates": [
          11.0551964,
          46.6958338
        ]
      },
      "id": "node/1314455370"
    },
    {
      "type": "Feature",
      "properties": {
        "@id": "node/1314457928",
        "direction": "-77",
        "tourism": "viewpoint"
      },
      "geometry": {
        "type": "Point",
        "coordinates": [
          11.0641766,
          46.6928024
        ]
      },
      "id": "node/1314457928"
    },
    {
      "type": "Feature",
      "properties": {
        "@id": "node/1315010047",
        "tourism": "viewpoint",
        "wheelchair": "yes"
      },
      "geometry": {
        "type": "Point",
        "coordinates": [
          10.8210223,
          45.8446569
        ]
      },
      "id": "node/1315010047"
    },
    {
      "type": "Feature",
      "properties": {
        "@id": "node/1319041054",
        "tourism": "viewpoint"
      },
      "geometry": {
        "type": "Point",
        "coordinates": [
          11.5252288,
          46.4852008
        ]
      },
      "id": "node/1319041054"
    },
    {
      "type": "Feature",
      "properties": {
        "@id": "node/1320100358",
        "tourism": "viewpoint"
      },
      "geometry": {
        "type": "Point",
        "coordinates": [
          10.9282524,
          46.0648159
        ]
      },
      "id": "node/1320100358"
    },
    {
      "type": "Feature",
      "properties": {
        "@id": "node/1322249560",
        "name": "Wasserfallblick - Vista sulla cascata",
        "tourism": "viewpoint"
      },
      "geometry": {
        "type": "Point",
        "coordinates": [
          12.1083062,
          46.8738075
        ]
      },
      "id": "node/1322249560"
    },
    {
      "type": "Feature",
      "properties": {
        "@id": "node/1326666640",
        "tourism": "viewpoint"
      },
      "geometry": {
        "type": "Point",
        "coordinates": [
          11.3538989,
          46.4916297
        ]
      },
      "id": "node/1326666640"
    },
    {
      "type": "Feature",
      "properties": {
        "@id": "node/1339556040",
        "name": "Mountain Cinema Latemar",
        "name:de": "Bergkino Latemar",
        "name:it": "Cinema di Montagna Latemar",
        "source": "https://eggental.com/de/aktiv_sport/wandern/eggentaler-bergkinos",
        "tourism": "viewpoint"
      },
      "geometry": {
        "type": "Point",
        "coordinates": [
          11.5945238,
          46.3967027
        ]
      },
      "id": "node/1339556040"
    },
    {
      "type": "Feature",
      "properties": {
        "@id": "node/1346996566",
        "tourism": "viewpoint"
      },
      "geometry": {
        "type": "Point",
        "coordinates": [
          11.2897697,
          46.339181
        ]
      },
      "id": "node/1346996566"
    },
    {
      "type": "Feature",
      "properties": {
        "@id": "node/1351862218",
        "tourism": "viewpoint"
      },
      "geometry": {
        "type": "Point",
        "coordinates": [
          11.374646,
          46.450464
        ]
      },
      "id": "node/1351862218"
    },
    {
      "type": "Feature",
      "properties": {
        "@id": "node/1357186608",
        "tourism": "viewpoint"
      },
      "geometry": {
        "type": "Point",
        "coordinates": [
          10.8514379,
          46.0535466
        ]
      },
      "id": "node/1357186608"
    },
    {
      "type": "Feature",
      "properties": {
        "@id": "node/1357187439",
        "tourism": "viewpoint"
      },
      "geometry": {
        "type": "Point",
        "coordinates": [
          10.8478169,
          46.0551052
        ]
      },
      "id": "node/1357187439"
    },
    {
      "type": "Feature",
      "properties": {
        "@id": "node/1362414083",
        "tourism": "viewpoint"
      },
      "geometry": {
        "type": "Point",
        "coordinates": [
          10.9539805,
          46.1571457
        ]
      },
      "id": "node/1362414083"
    },
    {
      "type": "Feature",
      "properties": {
        "@id": "node/1367514863",
        "tourism": "viewpoint"
      },
      "geometry": {
        "type": "Point",
        "coordinates": [
          11.2049017,
          46.6865286
        ]
      },
      "id": "node/1367514863"
    },
    {
      "type": "Feature",
      "properties": {
        "@id": "node/1368802028",
        "tourism": "viewpoint"
      },
      "geometry": {
        "type": "Point",
        "coordinates": [
          11.1823377,
          46.7110843
        ]
      },
      "id": "node/1368802028"
    },
    {
      "type": "Feature",
      "properties": {
        "@id": "node/1371177418",
        "direction": "305-7",
        "tourism": "viewpoint"
      },
      "geometry": {
        "type": "Point",
        "coordinates": [
          11.0836165,
          46.0506591
        ]
      },
      "id": "node/1371177418"
    },
    {
      "type": "Feature",
      "properties": {
        "@id": "node/1371177553",
        "tourism": "viewpoint"
      },
      "geometry": {
        "type": "Point",
        "coordinates": [
          11.0716066,
          46.0525477
        ]
      },
      "id": "node/1371177553"
    },